name,latitude,longitude,rating,num_reviews,rooms,total_grade
Royalty Hotel Athens,37.977127,23.726442,4.5,25.0,0.0,100.0
Dave Red Athens - Son of A Brown,37.98556,23.728083,3.5,38.0,87.0,100.0
Hotel Semeli,38.00164,23.73454,3.5,91.0,23.0,84.0
The Lekka Hotel & Spa,37.977436,23.731247,4.5,4.0,53.0,100.0
Ramada by Wyndham Attica Riviera,38.044376,24.000168,4.0,581.0,129.0,0.0
Parnis Palace Hotel Suites,38.12208,23.734367,2.0,56.0,60.0,0.0
Plaza Riviera Hotel,37.8729,23.73983,0.0,0.0,17.0,68.0
Pefkakia Hotel,37.988014,23.742083,0.0,0.0,48.0,81.0
Hydra Traditional Hotel,37.347233,23.463194,0.0,0.0,8.0,87.0
Hotel Maxim,37.98099,23.72822,0.0,0.0,22.0,100.0
Hotel Aristofanis,37.98024,23.72423,0.0,0.0,9.0,100.0
Hotel Etoile,37.98709,23.72895,0.0,0.0,15.0,100.0
Nlh Mati Seaside | Neighborhood Lifestyle Hotels,38.04739,23.99784,0.0,0.0,82.0,0.0
Hotel Dodoni,37.98717,23.72527,0.0,0.0,19.0,100.0
Hotel Neon Boston,37.98824,23.72009,0.0,0.0,20.0,96.0
Hotel Rhea,37.99081,23.72072,0.0,0.0,36.0,87.0
Hotel Orea Thessalia,37.98757,23.72553,0.0,0.0,25.0,100.0
Hotel Festos,38.14042,23.828829,4.0,9.0,119.0,0.0
Alexander Beach Hotel,37.725964,23.908476,3.0,103.0,105.0,0.0
New Victory,37.995716,23.730288,3.5,37.0,0.0,93.0
Athenaeum Palace & Luxury Suites,37.956696,23.717133,3.5,147.0,108.0,81.0
Hotel Diva,37.99833,23.73698,3.0,24.0,18.0,87.0
Liberty Hotel,37.986557,23.727398,3.0,32.0,16.0,100.0
Remvi Hotel,38.01267,23.73563,3.0,9.0,45.0,65.0
Hotel Androniki,37.98347,23.72574,4.0,1.0,23.0,100.0
Ionis Hotel,37.98634,23.72637,2.5,119.0,102.0,100.0
Jason Prime,37.98428,23.72379,3.0,75.0,82.0,100.0
Hotel Vergina,37.98637,23.72509,2.5,3.0,18.0,100.0
Hotel El Greco,37.98265,23.72726,3.5,6.0,92.0,100.0
Hotel Leto,37.98668,23.72801,5.0,1.0,19.0,100.0
Anixis,37.98273,23.718533,5.0,1.0,20.0,100.0
Lion Hotel Apartments,37.979286,23.749292,4.0,82.0,17.0,100.0
Hotel Stadion,37.97258,23.74388,4.0,2.0,187.0,100.0
Hotel Phedra,37.971,23.73041,3.5,26.0,21.0,100.0
Centro Residence,37.99769,23.72737,4.0,6.0,18.0,86.0
Athens City Plaza,37.98579,23.72644,2.5,13.0,35.0,100.0
Athens House Hostel,37.986523,23.727312,2.0,146.0,75.0,100.0
Hotel Olympia,37.99066,23.70525,4.0,10.0,40.0,59.0
Hotel Theoxenia,37.98452,23.72998,2.5,14.0,59.0,100.0
Hotel Metropole,37.975506,23.73067,2.5,6.0,16.0,100.0
Hotel Bill,37.98737,23.71916,3.5,8.0,36.0,100.0
Aeolos Suites,37.980007,23.729046,4.0,19.0,0.0,100.0
Hotel Christiana,37.98554,23.72725,3.0,3.0,30.0,100.0
44 Athens,37.97698,23.721302,1.0,1.0,0.0,100.0
The New Yorkers Hotel,37.982338,23.724451,2.0,19.0,12.0,100.0
Hotel Astoria,38.061386,23.828375,3.5,3.0,16.0,0.0
Salem Hotel,37.91125,23.74547,3.5,6.0,20.0,54.0
Hotel Prive,37.98732,23.71946,2.0,6.0,32.0,100.0
Classical Athens Imperial  Hotel,37.98521,23.72094,4.0,2.0,0.0,100.0
Hotel Attiki,37.98644,23.74093,4.0,11.0,17.0,88.0
Hotel Marie,37.987003,23.740274,3.5,39.0,17.0,88.0
Iniohos Hotel,37.98584,23.727453,3.0,187.0,134.0,100.0
Christina Hotel,37.96568,23.72934,1.0,1.0,70.0,100.0
Hotel Europa,37.98486,23.72852,4.5,4.0,37.0,100.0
Hotel Athinea,37.98421,23.72452,2.0,6.0,42.0,100.0
Kouros,37.97294,23.73257,2.5,3.0,10.0,100.0
Athens Luxury Suites,37.977806,23.726854,3.5,112.0,0.0,100.0
Hotel Frida,37.988834,23.742039,4.0,13.0,15.0,80.0
Hotel Melissa,38.045208,23.539148,2.0,9.0,46.0,76.0
Hotel N. Zacharatos,37.94686,23.64867,3.0,1.0,124.0,93.0
Hotel Agyra,37.5114,23.445808,1.0,1.0,0.0,54.0
Hotel Angira,37.5082,23.44548,3.0,2.0,45.0,56.0
Thimaras Hotel,37.258312,23.158426,4.5,37.0,16.0,67.0
Hotel Calypso,37.718544,23.916874,3.5,24.0,70.0,0.0
Riviera Plaza Hotel,37.85035,23.75326,3.5,52.0,15.0,65.0
Leonanti Hotel,38.13549,24.011442,1.5,40.0,140.0,0.0
Hotel Twentyone,38.073845,23.818708,4.0,114.0,21.0,88.0
Hotel Ilioperato,37.693943,23.456184,4.5,21.0,13.0,0.0
Hotel Brown,37.74308,23.430706,4.0,57.0,28.0,95.0
Nausica Bungalows,37.75151,23.42426,2.0,1.0,36.0,79.0
Midas Hotel,38.10787,23.82033,4.0,4.0,41.0,0.0
Ephi Hotel,37.772648,23.486712,3.0,6.0,113.0,39.0
A Hotel,37.266804,23.156094,5.0,2.0,0.0,84.0
Saronis Hotel,37.58144,23.3923,3.0,28.0,55.0,0.0
Hotel Alexandra,37.708233,23.366398,4.0,112.0,104.0,58.0
Les Amis Airport Hotel,37.8344,23.79193,3.0,37.0,15.0,0.0
Studios Zografies,36.158108,22.980343,4.0,36.0,18.0,0.0
Mely Hotel,36.14512,23.00084,4.5,7.0,15.0,57.0
Poros Vista Hotel,37.50051,23.45595,5.0,4.0,0.0,91.0
"Motel GOLDEN TRIP - Private transport - on the Central Markopoulo square, with ALL the shops at your feet",37.88309,23.93237,1.0,4.0,0.0,0.0
Poros Hotel,37.501762,23.455605,0.0,0.0,0.0,79.0
Anita Hotel,37.945663,23.6476,0.0,0.0,0.0,100.0
Soho Hotel,37.98169,23.72453,0.0,0.0,0.0,100.0
MyHome!,38.012203,23.692923,0.0,0.0,0.0,73.0
Madison Hotel,37.99683,23.77095,0.0,0.0,0.0,81.0
Filopappou Hill Suites,37.963047,23.715023,0.0,0.0,7.0,88.0
Nautilus,37.751453,23.427118,0.0,0.0,0.0,85.0
Xenia,37.77013,23.531885,0.0,0.0,6.0,0.0
Ruby Rooms,38.108234,23.820234,0.0,0.0,0.0,0.0
Civitel Esprit,38.048084,23.79754,0.0,0.0,20.0,72.0
NLH Kerameikos,37.979965,23.720629,0.0,0.0,35.0,100.0
Victoria Residence Athens,37.995495,23.728598,0.0,0.0,19.0,93.0
Mavro Lithari Beach Apartments,37.73312,23.903532,2.5,31.0,17.0,0.0
Egosthenio Hotel - Porto Germeno,38.15231,23.2257,3.0,2.0,106.0,0.0
The Pinnacle Athens,37.979614,23.728235,4.5,101.0,0.0,100.0
Wyndham Athens Residence,37.985493,23.720947,4.5,398.0,89.0,100.0
Jason Inn,37.978645,23.720758,3.5,644.0,57.0,100.0
Acropolis Hill Hotel,37.967102,23.723454,4.0,966.0,36.0,100.0
Best Western Plus Embassy Hotel,37.9839,23.75596,4.0,274.0,31.0,90.0
The Stanley,37.985966,23.720827,4.0,459.0,380.0,100.0
Athos Hotel,37.9749,23.731136,3.5,253.0,18.0,100.0
Athens Zafolia Hotel,37.989468,23.746857,4.0,587.0,191.0,73.0
Mirame Athens Boutique Hotel-House Of Gastronomy,37.977394,23.721888,5.0,34.0,7.0,100.0
Hotel Phaedra,37.97102,23.730406,4.0,404.0,21.0,100.0
A77 Suites by Andronis,37.974216,23.729294,5.0,83.0,12.0,100.0
Arion Athens Hotel,37.97942,23.725733,4.0,838.0,51.0,100.0
Adams Hotel,37.971336,23.731386,4.0,371.0,14.0,100.0
Hotel Pergamos,37.98853,23.726767,3.5,372.0,33.0,97.0
Electra Metropolis Athens,37.975113,23.732151,4.5,1635.0,216.0,100.0
Astor Hotel,37.976536,23.732428,3.5,988.0,131.0,100.0
Golden City Hotel,37.986423,23.725407,3.0,371.0,90.0,100.0
Athens Diamond Plus,37.975407,23.732525,4.0,238.0,13.0,100.0
Athens Lotus Hotel,37.987213,23.721289,4.0,1053.0,31.0,100.0
Ambrosia Suites,37.985043,23.72713,3.5,162.0,0.0,0.0
Hotel Vienna,37.982994,23.725426,3.5,178.0,62.0,100.0
Athens Capital Center Hotel - MGallery Collection,37.97679,23.736153,4.5,201.0,177.0,100.0
Stone Palace Hotel,37.95225,23.84735,3.0,14.0,0.0,41.0
Philippos Hotel,37.967697,23.727255,4.0,1344.0,50.0,100.0
"Radisson Blu Park Hotel, Athens",37.99126,23.733164,4.0,1674.0,152.0,93.0
Athens Psiri Hotel,37.98137,23.726349,4.5,10.0,0.0,100.0
The Athenian Callirhoe Exclusive Hotel,37.965626,23.72944,4.0,983.0,84.0,100.0
Hotel Elisabeth,37.98726,23.76722,3.5,38.0,18.0,82.0
Balasca Hotel,37.99068,23.723751,2.5,174.0,83.0,89.0
Andronis Athens,37.97826,23.72464,5.0,183.0,6.0,100.0
Tier Collection,37.986378,23.72259,4.0,20.0,18.0,100.0
Central Hotel,37.974655,23.731155,4.0,2279.0,84.0,100.0
The Newel Acropolis,37.96689,23.73359,3.5,5.0,24.0,100.0
athensotel.com,37.97786,23.725935,4.0,51.0,14.0,100.0
Hotel Erato,37.97607,23.71283,3.5,3.0,21.0,100.0
Ivis 4 Boutique Hotel,37.977776,23.722261,5.0,63.0,14.0,100.0
Gatsby Athens,37.976807,23.732058,5.0,41.0,33.0,100.0
Niche Hotel Athens,37.96723,23.730356,4.5,121.0,37.0,100.0
Crystal City Hotel,37.985313,23.720675,3.5,451.0,36.0,100.0
Novotel Athenes,37.989464,23.725016,4.0,2968.0,196.0,93.0
Trendy Hotel By Athens Prime Hotels,37.985435,23.732206,4.5,15.0,44.0,100.0
Madison Hotel & Suites,37.996838,23.770927,3.0,2.0,0.0,81.0
"Hotel Grande Bretagne, A Luxury Collection Hotel",37.976265,23.735342,4.5,4407.0,321.0,100.0
Tempi Hotel,37.977337,23.727798,3.5,452.0,24.0,100.0
Pinguino Hostel Athens,37.99847,23.718428,5.0,1.0,15.0,66.0
Parnon Hotel,37.986065,23.728786,3.5,217.0,51.0,100.0
Polis Grand Hotel,37.985428,23.729544,4.0,1448.0,100.0,100.0
Noma Hotel,37.97688,23.727905,4.0,36.0,0.0,100.0
Heart of Athens,37.97866,23.722925,4.5,83.0,3.0,100.0
The Residence – Christokopidou Hotel & SPA,37.97776,23.723385,4.5,53.0,17.0,100.0
Museum Hotel,37.988083,23.733446,4.0,1137.0,93.0,100.0
The Golden Age Hotel of Athens,37.9783,23.755428,4.0,912.0,122.0,99.0
President Hotel,37.989155,23.76377,3.5,2090.0,516.0,88.0
Athens Platinum Rooms and Suites,37.98866,23.768597,4.0,39.0,41.0,83.0
Diros Hotel,37.9845,23.725845,3.0,164.0,45.0,100.0
Plaka Arch Suites,37.9707,23.73062,4.5,13.0,7.0,100.0
Royal Olympic,37.967697,23.732357,4.0,3979.0,264.0,100.0
Cecil Hotel Athens,37.979168,23.726664,3.5,484.0,36.0,100.0
"Brown Lighthouse Athens, a Member of Brown Hotels",37.98469,23.727573,4.0,41.0,220.0,100.0
Pagration Youth Hostel,37.96544,23.74857,3.5,86.0,10.0,90.0
MET34 Athens,37.97552,23.731537,5.0,389.0,7.0,100.0
Best Western My Athens Hotel,37.9839,23.723589,3.0,352.0,55.0,100.0
Mona Athens,37.97766,23.726048,5.0,3.0,20.0,100.0
Alassia Hotel,37.98489,23.727058,3.0,269.0,82.0,100.0
"King George, a Luxury Collection Hotel, Athens",37.976295,23.734932,4.5,1313.0,102.0,100.0
Iasonos Suites Athens,37.984787,23.720015,3.0,5.0,16.0,100.0
Exarchion Hotel,37.986164,23.734419,3.5,190.0,50.0,100.0
Athens Odeon Hotel,37.982132,23.723158,3.0,164.0,56.0,100.0
Athens Lydia Hotel,37.99693,23.72206,3.5,6.0,37.0,72.0
Periscope Hotel,37.978333,23.74391,4.5,520.0,22.0,100.0
Rio Hotel,37.98524,23.719652,2.5,257.0,51.0,100.0
Victory Inn,37.99614,23.734251,4.5,364.0,34.0,94.0
Nicola Hotel,37.99721,23.74278,3.5,19.0,29.0,73.0
Hotel Cosmopolit,37.985283,23.727608,3.5,304.0,65.0,100.0
The Marblous Athens,37.97553,23.732391,4.5,38.0,25.0,100.0
Hotel Cosmos,37.987007,23.722464,3.5,383.0,123.0,100.0
Athens Tower Hotel by Palladian Hotels,37.97677,23.726292,4.5,28.0,0.0,100.0
Athens Hawks,37.981968,23.724632,3.5,49.0,50.0,100.0
Acropolian Spirit Boutique Hotel,37.96777,23.731056,4.0,101.0,40.0,100.0
Evripides Hotel,37.980312,23.723574,4.0,1029.0,62.0,100.0
Athenaeum Eridanus Luxury Hotel,37.97998,23.718405,3.5,41.0,39.0,100.0
Divani Caravel Hotel,37.97311,23.751451,4.5,560.0,471.0,100.0
Novus City Hotel,37.985626,23.722586,4.0,966.0,85.0,100.0
COLORS Hotel Athens,37.984516,23.73274,5.0,66.0,29.0,100.0
Athenaeum Smart Hotel,37.95635,23.7168,4.0,27.0,0.0,81.0
Hotel @ Syngrou Fix,37.963547,23.725147,4.5,80.0,30.0,100.0
ibis Styles Athens Routes,37.95932,23.734268,4.5,116.0,89.0,92.0
Athens Starlight Hotel,37.978382,23.727451,4.5,62.0,25.0,100.0
Vitruvius Smart Hotel & Spa,37.98355,23.721506,4.0,67.0,21.0,100.0
Hermes Hotel,37.974667,23.731216,4.5,1861.0,45.0,100.0
Hotel Bryon,37.970127,23.730095,3.0,337.0,20.0,100.0
Lozenge Hotel,37.977604,23.736801,4.5,273.0,25.0,100.0
B4B Athens 365 Hotel,37.958904,23.719137,4.5,83.0,15.0,87.0
xenodocheio Milos,37.977253,23.733126,4.5,13.0,42.0,100.0
Mosaikon,37.97774,23.72844,5.0,48.0,0.0,100.0
Ares Athens Hotel,37.983456,23.726097,3.0,65.0,39.0,100.0
44 Athens,37.983025,23.760004,5.0,4.0,0.0,93.0
Boss Boutique Athens,37.986443,23.72705,3.5,17.0,0.0,100.0
Hotel Feron,37.99256,23.72666,2.5,4.0,19.0,93.0
Dionysos Hotel,37.995514,23.728569,3.5,97.0,26.0,93.0
Melia Athens,37.98604,23.730024,4.0,2824.0,136.0,100.0
Ilisia Hotel Athens,37.975796,23.751865,3.0,307.0,91.0,100.0
Klepsydra Urban Suites,37.97959,23.72991,4.5,35.0,14.0,100.0
Athens Center Rooms,37.987072,23.72289,2.0,4.0,0.0,100.0
Brown Acropol By Brown Hotels,37.983585,23.727194,4.5,162.0,165.0,100.0
Acropolis Plaza Smart Hotel and Spa,37.984844,23.720058,4.5,35.0,16.0,100.0
Hotel Diethnes,37.99372,23.721933,3.0,139.0,25.0,84.0
Hotel Artemision,37.98562,23.72855,2.0,35.0,43.0,100.0
Mirabello Hotel,37.984303,23.726118,3.5,162.0,50.0,100.0
Athens Center Square,37.98031,23.726286,4.5,1649.0,54.0,100.0
Urban Frame Hotel,37.97352,23.73282,4.5,52.0,15.0,100.0
B4B Athens Signature Hotel,37.965473,23.730848,4.5,237.0,34.0,100.0
AVA Hotel Athens,37.97051,23.731339,5.0,2051.0,15.0,100.0
NLH Kerameikos - Neighborhood Lifestyle Hotels,37.97987,23.720625,4.5,19.0,35.0,100.0
Hotel Platon,38.064922,23.755512,3.5,30.0,66.0,0.0
Evita Asty Hotel,37.98636,23.727814,4.0,15.0,96.0,100.0
Hypnos Inn Athens,37.98868,23.746851,5.0,3.0,24.0,76.0
Delphi Art Hotel,37.984505,23.724766,3.5,424.0,40.0,100.0
Hotel Minoa,37.98579,23.723011,3.5,317.0,42.0,100.0
Athens Warehouse Boutique Hotel & Suites,37.98665,23.72685,4.0,2.0,0.0,100.0
Blend Hotel,37.97882,23.72801,4.5,50.0,24.0,100.0
Hotel Athinaikon,37.980003,23.726421,3.5,301.0,25.0,100.0
Athens Lights Hotel,37.98523,23.7321,3.5,22.0,13.0,100.0
Achilleas Hotel,37.97704,23.731688,4.5,65.0,35.0,100.0
AthensWas Design Hotel,37.96961,23.730776,4.5,510.0,21.0,100.0
Classical Fashion House Hotel,37.98314,23.71623,3.0,39.0,115.0,100.0
Acropolis Select Hotel,37.965847,23.72732,4.0,1016.0,72.0,100.0
Athens Tiare Hotel,37.983864,23.727371,4.5,585.0,111.0,100.0
​St. George Lycabettus Lifestyle Hotel,37.979115,23.742376,4.0,3256.0,154.0,100.0
Economy Hotel,37.98146,23.726732,4.0,702.0,56.0,100.0
Claridge Hotel,37.984573,23.728819,2.0,111.0,53.0,100.0
Zappion Hotel,37.970676,23.742977,4.0,121.0,16.0,100.0
O&B Athens Boutique Hotel,37.97752,23.722004,4.5,2353.0,22.0,100.0
Holiday Suites,37.977654,23.754202,4.5,224.0,34.0,100.0
Acropolis View Hotel,37.96888,23.72391,4.0,864.0,32.0,100.0
Hellenic Vibes Smart Hotel,37.976967,23.727245,4.5,22.0,35.0,100.0
Athens Panorama Project,37.996277,23.742012,4.0,30.0,54.0,76.0
Classic Hotel by Athens Prime Hotels,37.97802,23.730536,5.0,17.0,25.0,100.0
Hotel Ariston,37.990913,23.720654,4.0,344.0,35.0,87.0
Athens21,37.977737,23.726606,4.5,38.0,19.0,100.0
Lacoba Hotel,37.94369,23.69689,2.5,25.0,84.0,72.0
Enattica Suites,37.97734,23.729769,4.0,27.0,22.0,100.0
Hotel Moka,37.98805,23.72837,4.0,185.0,18.0,100.0
Athens Ikon,37.975266,23.731688,5.0,33.0,6.0,100.0
Acropolis Ami Boutique Hotel,37.96449,23.730478,4.0,496.0,18.0,100.0
Art Suites Korai,37.987453,23.727861,1.0,2.0,0.0,100.0
Athens Habitat,38.03368,23.799126,4.5,206.0,13.0,62.0
Hapimag Resort Athene,37.972164,23.73243,4.5,94.0,16.0,100.0
Athens City Hotel,38.007744,23.73511,3.5,149.0,40.0,72.0
Titania Hotel,37.98296,23.730904,3.5,2261.0,385.0,100.0
Pallada Athens Boutique Rooms & Suites,37.97836,23.725603,4.0,12.0,8.0,100.0
Ruby Rooms Athens,37.95703,23.73746,4.0,1.0,12.0,87.0
Divani Palace Acropolis,37.96755,23.725737,4.0,757.0,250.0,100.0
Be My Guest Athens,37.97498,23.71682,4.5,125.0,14.0,100.0
Hotel Eva,37.986385,23.72274,2.0,31.0,20.0,100.0
Athens City View,37.977478,23.727749,5.0,14.0,11.0,100.0
Alma Hotel,37.98492,23.72898,2.0,151.0,64.0,100.0
Suites At Syngrou-Fix,37.96441,23.725706,5.0,4.0,9.0,100.0
Delice Hotel - Family Apartments,37.974377,23.750776,4.0,214.0,25.0,100.0
NJV Athens Plaza,37.97635,23.734549,4.0,1364.0,180.0,100.0
Xenophon Hotel,38.01521,23.72891,3.0,114.0,186.0,64.0
Hotel Nafsika,37.98594,23.723003,3.0,187.0,44.0,100.0
Pallas Athena Grecotel Boutique Hotel,37.98261,23.727417,4.5,1197.0,63.0,100.0
Coco-Mat Hotel Athens,37.97798,23.744194,4.5,574.0,39.0,100.0
Electra Palace Athens,37.97375,23.731936,4.5,4080.0,154.0,100.0
Villa Mc Queen,37.98419,23.711317,5.0,2.0,0.0,87.0
Moxy Athens City,37.98345,23.728512,4.5,51.0,0.0,100.0
"Academias Hotel, Autograph Collection",37.979694,23.736052,4.5,129.0,60.0,100.0
Hotel Kypseli,38.00114,23.74024,2.5,2.0,18.0,79.0
Breeze Boutique Athens,37.98638,23.72745,4.0,81.0,0.0,100.0
COCO-MAT Athens Jumelle,37.97577,23.74305,4.5,103.0,45.0,100.0
The Modernist Athens,37.97741,23.749311,5.0,74.0,38.0,100.0
Apollonia Hotel Apartments,37.821095,23.796177,3.0,92.0,37.0,0.0
Airotel Stratos Vassilikos Hotel,37.981304,23.758953,4.5,890.0,88.0,95.0
Hotel Neos Olympos,37.988766,23.720203,3.0,294.0,27.0,94.0
Marina Hotel Athens,37.983425,23.724072,3.5,1043.0,81.0,100.0
Foivos Hotel Athens,37.946854,23.682339,3.5,8.0,26.0,69.0
Candia Hotel,37.989124,23.720322,3.0,310.0,142.0,93.0
Amazon Hotel,37.97524,23.731909,4.0,1270.0,42.0,100.0
NEW Hotel,37.9734,23.733585,4.5,1902.0,79.0,100.0
Airotel Alexandros,37.983368,23.757019,4.0,906.0,93.0,93.0
Hotel Metropolis,37.975414,23.730652,4.0,801.0,22.0,100.0
Electra Hotel Athens,37.97584,23.732998,4.0,1309.0,109.0,100.0
Hotel Tony,37.965355,23.72342,4.5,659.0,16.0,100.0
Orion & Dryades Hotel,37.98743,23.738064,4.0,324.0,30.0,94.0
SOUL Athens Hotel,37.98064,23.725603,4.5,32.0,49.0,100.0
Achillion Athens Hotel,37.984974,23.724155,3.5,495.0,63.0,100.0
Athens Utopia Ermou,37.976337,23.729462,4.5,210.0,28.0,100.0
Pythagorion Hotel,37.98486,23.724588,4.0,708.0,56.0,100.0
Athens One Smart Hotel,37.986122,23.725363,4.5,59.0,42.0,100.0
Athens Diamond Homtel,37.97533,23.732449,4.0,777.0,21.0,100.0
Wyndham Grand Athens,37.985153,23.721218,4.0,1305.0,276.0,100.0
Attalos Hotel,37.978447,23.726465,4.0,2383.0,78.0,100.0
Hotel Acropolis House,37.973385,23.732063,4.0,592.0,22.0,100.0
The Zillers Athens Boutique Hotel,37.975636,23.72942,4.5,257.0,10.0,100.0
Alter Athens Hotel,37.98694,23.7402,4.0,34.0,17.0,87.0
Hotel Elite,37.982662,23.72527,2.5,192.0,36.0,100.0
Athens Golden City Hotel,37.98643,23.725334,3.0,1.0,0.0,100.0
Selina Theatrou Athens,37.98077,23.72485,4.0,24.0,101.0,100.0
Plaka Hotel,37.975792,23.728308,4.5,4083.0,67.0,100.0
Niki Athens Hotel,37.97379,23.733002,4.5,64.0,23.0,100.0
City Center Athenes Rooms,37.987278,23.728203,1.0,1.0,0.0,100.0
Heritage Hill Hotel,37.962475,23.724306,4.5,45.0,36.0,100.0
Art Suites Athens,37.980503,23.756998,3.5,129.0,10.0,97.0
Filoxenia Hotel,37.99113,23.72712,2.5,61.0,51.0,95.0
The Editor Athens Hotel,37.97773,23.727287,4.5,58.0,40.0,100.0
King Jason Hotel,37.98338,23.72198,2.5,105.0,114.0,100.0
Adonis Hotel,37.973347,23.732227,3.5,595.0,26.0,100.0
Athinais Hotel,37.983307,23.757431,4.0,460.0,84.0,93.0
Hotel Victory,37.99477,23.72886,4.0,1.0,19.0,95.0
Airotel Parthenon,37.96915,23.730534,4.0,1895.0,79.0,100.0
Fresh Hotel,37.981228,23.726898,4.0,2660.0,133.0,100.0
Hilton Athens,37.976013,23.750368,4.5,4745.0,506.0,100.0
Pan Hotel,37.975147,23.732635,4.0,803.0,33.0,100.0
Green Suites Boutique Hotel,38.022297,23.735214,4.5,40.0,41.0,72.0
Kimon Hotel Athens,37.974663,23.730139,4.0,443.0,14.0,100.0
ROY Hotel,38.0032,23.72859,3.5,16.0,37.0,89.0
Omiros Hotel,37.97475,23.731735,3.5,484.0,40.0,100.0
Pure Hotel By Athens Prime Hotels,37.978065,23.728682,3.5,3.0,33.0,100.0
"Crowne Plaza Athens - City Centre, an IHG Hotel",37.97693,23.755089,4.0,1068.0,191.0,99.0
Marble House,37.96387,23.724117,4.5,943.0,16.0,100.0
Hotel Priamos,37.97126,23.74266,3.5,21.0,50.0,100.0
Coco-Mat Athens BC,37.967354,23.729221,4.5,275.0,94.0,100.0
Hotel Carolina,37.977768,23.729115,3.5,295.0,31.0,100.0
Areos Hotel,37.991,23.733932,4.5,740.0,38.0,90.0
Athens Atrium Hotel & Suites,37.954636,23.71794,4.0,571.0,56.0,81.0
Kubic a Member of Brown Hotels,37.98474,23.724798,4.5,181.0,112.0,100.0
Grand Hyatt Athens,37.957413,23.718184,4.0,1073.0,0.0,88.0
Hotel Thissio,37.974037,23.720001,3.5,27.0,6.0,100.0
Amalia Hotel Athens,37.973946,23.735025,4.5,2195.0,98.0,100.0
Hotel Brazil Inn,37.9955,23.72854,4.0,12.0,15.0,93.0
Hotel Hellenis,37.951202,23.710302,2.5,181.0,86.0,60.0
Athens Mansion Luxury Suites,37.979492,23.728968,4.5,140.0,18.0,100.0
Elikon Hotel,37.984856,23.728855,3.5,79.0,24.0,100.0
Acropolis Museum Boutique Hotel,37.96605,23.728483,4.0,1385.0,23.0,100.0
Hotel Katerina,37.98603,23.722237,4.0,625.0,51.0,100.0
Elia Ermou Athens Hotel,37.97559,23.731894,4.5,415.0,123.0,100.0
Hera Hotel,37.966984,23.729013,4.5,1411.0,38.0,100.0
AD Athens Luxury Rooms and Suites,37.968525,23.730007,5.0,245.0,0.0,100.0
Neoma,37.966663,23.722897,5.0,18.0,16.0,100.0
Herodion Hotel,37.96833,23.727125,4.5,3215.0,90.0,100.0
Stalis Hotel,37.98486,23.72472,3.0,50.0,31.0,100.0
Hotel Socrates,37.990803,23.721231,3.0,246.0,47.0,88.0
Dorian Inn Hotel,37.982864,23.725626,3.5,1215.0,142.0,100.0
NLH Fix - Neighborhood Lifestyle Hotels,37.965157,23.727257,5.0,287.0,13.0,100.0
Adrian Hotel,37.974674,23.727816,4.0,477.0,22.0,100.0
La Mirage,37.98474,23.72751,2.0,30.0,110.0,100.0
Project 3 Urban Chic Hotel,37.9782,23.741419,5.0,23.0,10.0,100.0
Art Hotel,37.987595,23.727564,3.5,982.0,30.0,100.0
"InterContinental Athenaeum Athens, an IHG Hotel",37.959415,23.721506,4.0,2864.0,563.0,96.0
Hotel Orpheus,37.986485,23.726223,1.0,2.0,39.0,100.0
Brazil Hotel,37.99308,23.72838,4.0,114.0,20.0,96.0
Athens Market Portrait,37.98001,23.726406,4.5,42.0,26.0,100.0
The Athens Gate Hotel,37.968777,23.731386,4.5,4656.0,99.0,100.0
InnAthens,37.97356,23.734259,5.0,766.0,37.0,100.0
Hotel Nefeli,37.97305,23.731394,3.5,301.0,18.0,100.0
Arethusa Hotel,37.975304,23.732977,3.5,1203.0,87.0,100.0
Ilissos Hotel,37.961338,23.720568,3.5,726.0,91.0,100.0
Epidavros Hotel,37.983833,23.724722,3.5,12.0,51.0,100.0
Athens Delta Hotel,37.98707,23.719357,2.5,130.0,31.0,100.0
Phidias Hotel,37.975086,23.719769,3.0,374.0,15.0,100.0
Apollo Hotel,37.98512,23.719912,3.5,751.0,51.0,100.0
Hotel Ikaros,37.9856,23.72495,2.5,9.0,15.0,100.0
Exis Boutique Hotel,38.002758,23.733406,3.5,57.0,26.0,88.0
Perianth Hotel,37.977394,23.728418,4.5,135.0,38.0,100.0
Hotel Solomou Athens,37.98737,23.728378,3.0,295.0,50.0,100.0
Hotel Aristoteles,37.988293,23.726727,3.0,675.0,60.0,98.0
Elefsina Hotel,38.04831,23.540205,4.5,241.0,83.0,69.0
Hotel Noufara,37.941734,23.645758,4.0,107.0,56.0,100.0
the alex MONTE KASTELLA,37.93954,23.66153,5.0,47.0,34.0,85.0
Piraeus City Hotel,37.942314,23.644379,4.0,1237.0,47.0,100.0
Savoy Hotel,37.93698,23.642021,3.5,268.0,71.0,94.0
Glaros Hotel,37.93842,23.64102,3.5,93.0,31.0,97.0
Olympic Hotel,37.946102,23.66849,3.5,11.0,0.0,72.0
Faros 1 Hotel,37.938766,23.641579,4.0,351.0,42.0,97.0
Hotel Poseidonio,37.93867,23.641026,4.0,103.0,91.0,98.0
Hotel Ideal,37.9388,23.64143,3.5,158.0,31.0,97.0
Carol Hotel,37.94278,23.661411,4.0,36.0,35.0,79.0
The Park Hotel,37.940243,23.643425,2.5,106.0,40.0,98.0
Hotel Triton,37.945477,23.64466,3.5,466.0,57.0,100.0
Eva Apartments,37.94715,23.64708,4.5,5.0,0.0,96.0
Hotel Argo Anita,37.94562,23.647606,3.5,406.0,55.0,100.0
Gallery Suites & Residences,37.94711,23.64462,4.5,14.0,0.0,100.0
Delfini Hotel,37.94683,23.642773,2.0,193.0,50.0,99.0
Phidias Piraeus Hotel,37.939377,23.646955,4.5,1748.0,25.0,98.0
Ionion Hotel Piraeus,37.947655,23.642975,3.0,111.0,19.0,99.0
Faros II Hotel,37.93943,23.64284,3.5,102.0,24.0,98.0
Lilia Hotel,37.939632,23.651304,4.5,716.0,18.0,97.0
Efplias Hotel,37.93683,23.64015,4.0,57.0,23.0,91.0
Piraeus Port Hotel,37.94682,23.648643,4.5,393.0,32.0,93.0
Niki Hotel,37.94716,23.647514,3.0,127.0,26.0,96.0
Cavo d'Oro,37.93687,23.656162,3.0,53.0,74.0,84.0
Hotel Anemoni,37.944805,23.64926,4.0,196.0,45.0,100.0
Piraeus Theoxenia Hotel,37.9456,23.647104,4.0,591.0,76.0,100.0
Pension Elektra,37.747948,23.4273,4.5,81.0,8.0,96.0
Hotel Mistral,37.348038,23.469046,5.0,660.0,17.0,97.0
Miranda Hotel,37.347916,23.466076,4.0,97.0,1.0,96.0
Hotel Leto Hydra,37.348103,23.466866,4.5,471.0,22.0,97.0
Sidra Hotel,37.348717,23.466951,4.0,61.0,16.0,97.0
Phaedra Hotel,37.34844,23.468834,5.0,282.0,7.0,99.0
Orloff Boutique Hotel,37.348217,23.465172,4.5,313.0,9.0,97.0
Hydra Hotel,37.348904,23.46456,4.5,123.0,8.0,97.0
Hotel Delfini,37.350437,23.466528,3.5,30.0,269.0,99.0
Angelica Hotel,37.34753,23.46632,4.0,189.0,21.0,96.0
Ippokampos Hotel,37.348705,23.468094,4.0,93.0,15.0,99.0
Greco Hotel,37.34819,23.46981,4.5,124.0,19.0,96.0
Amarillis Hotel,37.349308,23.46753,4.5,46.0,10.0,99.0
Hydroussa Hotel,37.348495,23.46557,4.0,261.0,40.0,97.0
Four Seasons Hydra Hotel,37.33782,23.439793,4.5,149.0,6.0,0.0
Theano Hotel,37.5072,23.457,4.5,36.0,16.0,61.0
Manessi City Boutique Hotel,37.49944,23.451418,4.5,129.0,13.0,79.0
Sirene Blue Resort,37.50543,23.479399,4.5,347.0,95.0,43.0
Hotel Saron,37.499184,23.451538,4.5,61.0,18.0,81.0
Golden View Beach Hotel,37.50835,23.46513,4.0,146.0,55.0,56.0
7 Brothers Hotel,37.49879,23.452633,4.5,194.0,16.0,81.0
Xenia Poros Image Hotel,37.507915,23.445465,4.0,531.0,80.0,56.0
Dimitra Boutique Hotel,37.501945,23.455765,4.5,132.0,10.0,79.0
New Aegli Resort Hotel,37.508614,23.466492,4.0,483.0,77.0,62.0
Hotel Dionysos,37.50256,23.4553,4.0,44.0,10.0,77.0
Saga Hotel Studios & Apartments,37.507717,23.457104,4.5,290.0,21.0,59.0
Magdas Kamares,37.509174,23.473728,3.5,37.0,218.0,56.0
Hotel Pavlou,37.511684,23.44531,3.5,55.0,36.0,54.0
Votsalakia Hotel & Apartments,37.933693,23.535896,4.0,24.0,5.0,0.0
Atlantis Hotel,37.255905,23.162395,2.0,18.0,38.0,55.0
7islands Guesthouse,37.256664,23.160091,4.5,75.0,15.0,58.0
Mimoza,37.257805,23.161821,4.5,83.0,20.0,59.0
Star Hotel,37.2667,23.15,2.5,31.0,37.0,81.0
Mare Monte Boutique Hotel,37.263607,23.159716,5.0,84.0,6.0,81.0
Orloff Resort Hotel,37.25858,23.162107,4.5,162.0,22.0,64.0
A Hotel,37.266926,23.156261,3.0,40.0,50.0,84.0
Poseidonion Grand Hotel,37.268536,23.15502,4.5,472.0,52.0,85.0
Spetses Hotel,37.272785,23.147045,4.0,254.0,77.0,61.0
Armata Boutique Hotel,37.268093,23.153894,5.0,808.0,20.0,87.0
Klimis Hotel,37.266106,23.157244,4.5,141.0,19.0,85.0
The Convo 336,37.943493,23.684896,4.5,14.0,0.0,67.0
Athenaeum Grand Hotel,37.95859,23.718918,3.5,395.0,92.0,92.0
Athens Avenue Hotel,37.956142,23.715376,4.5,293.0,94.0,85.0
Plaza Resort Hotel,37.722878,23.945065,3.5,483.0,132.0,40.0
Vincci Evereden Beach Resort Hotel & Spa,37.728096,23.90823,4.0,130.0,260.0,0.0
Sofitel Athens Airport,37.936836,23.945972,4.5,5718.0,345.0,49.0
Luxury Home,37.96728,23.91072,5.0,10.0,0.0,45.0
4MS Flight Apartments Airport,37.96386,23.912523,5.0,6.0,0.0,0.0
Hotel Saron,37.676186,24.047117,3.5,97.0,50.0,0.0
Helen's Sounio Apartments,37.66936,23.96706,5.0,1.0,0.0,0.0
"Cape Sounio, Grecotel Exclusive Resort",37.658882,24.017082,4.0,1034.0,150.0,56.0
Aegeon Beach Hotel,37.65405,24.025108,4.5,453.0,45.0,61.0
Grand Resort Lagonissi,37.778008,23.888391,4.0,601.0,276.0,0.0
Blue Sky Hotel,37.85655,23.759039,4.5,206.0,19.0,85.0
Congo Palace Hotel,37.86152,23.749798,3.0,253.0,92.0,96.0
Brasil Suites Hotel Apartments,37.857014,23.755278,5.0,424.0,16.0,91.0
Golden Sun Hotel,37.854637,23.752726,4.0,208.0,60.0,80.0
Fenix Hotel,37.873474,23.73616,3.5,394.0,129.0,60.0
Sea View Hotel,37.856773,23.752872,4.0,456.0,73.0,86.0
Palmyra Beach Hotel,37.866016,23.742872,4.0,512.0,53.0,78.0
Oasis Hotel Apartments,37.86957,23.740433,3.5,239.0,70.0,68.0
Palace Hotel,37.874607,23.733023,3.5,312.0,76.0,51.0
Emmantina Hotel,37.868244,23.741339,3.5,390.0,80.0,76.0
Glyfada Riviera Hotel,37.869698,23.738943,4.0,55.0,47.0,69.0
Athens Coast Hotel,37.86322,23.752327,4.0,144.0,68.0,95.0
London Hotel,37.86984,23.738472,4.0,532.0,74.0,71.0
Hotel Kreoli,37.86236,23.75764,3.0,28.0,52.0,90.0
Four Seasons Hotel,37.86212,23.748657,3.0,117.0,77.0,95.0
"Holiday Inn Athens - Airport, an IHG Hotel",37.971966,23.88006,4.0,1319.0,194.0,0.0
Minavra Hotel,37.851685,23.75362,4.0,96.0,27.0,70.0
Hotel Miramare,37.84753,23.754522,3.0,52.0,20.0,61.0
The Blazer Suites Hotel,37.853275,23.752245,4.5,160.0,28.0,77.0
Hotel Galini Palace,37.837784,23.764614,3.5,79.0,20.0,52.0
Parthenis Riviera Hotel,37.85041,23.753014,3.5,58.0,23.0,65.0
Stefanakis Hotel Apartments,37.820004,23.800356,4.0,114.0,41.0,44.0
Four Seasons Astir Palace Hotel Athens,37.805103,23.768635,4.5,364.0,303.0,55.0
Vouliagmeni Suites,37.810135,23.78379,4.0,280.0,35.0,86.0
Somewhere Boutique Hotel Vouliagmeni,37.814056,23.781666,4.5,73.0,11.0,87.0
Divani Apollon Palace & Thalasso,37.828323,23.771338,4.0,1294.0,280.0,45.0
Divani Apollon Suites,37.82803,23.7718,4.5,144.0,56.0,45.0
Azur Hotel,37.81522,23.776518,4.5,66.0,40.0,81.0
Amarilia Hotel,37.827866,23.771896,4.0,621.0,95.0,45.0
The Margi,37.813766,23.773989,4.5,972.0,89.0,82.0
Acropol Hotel,38.02586,23.809902,3.5,132.0,55.0,52.0
Chroma Fashion Hotels,38.02287,23.80151,5.0,22.0,24.0,86.0
Mirivili Rooms & Suites,38.027733,23.791504,5.0,36.0,18.0,58.0
Tropical Hotel,37.904736,23.719007,3.5,205.0,30.0,51.0
Galaxy Hotel,37.910973,23.711487,3.5,178.0,471.0,63.0
Blue Sea Hotel,37.912205,23.71532,4.0,173.0,71.0,69.0
Verori Hotel,38.167217,23.334946,2.5,6.0,60.0,0.0
Idillion,38.166546,23.33757,4.5,19.0,20.0,0.0
Rosy's Little Village,37.705154,23.370811,5.0,402.0,16.0,45.0
Yianna Hotel,37.707676,23.365532,3.5,89.0,15.0,59.0
Kekrifalia Hotel,37.706394,23.370295,4.5,138.0,15.0,51.0
Megara Hotel,37.984806,23.341063,5.0,62.0,8.0,0.0
Chris Hotel,38.10097,23.81156,4.0,98.0,29.0,0.0
Hotel des Roses,38.07183,23.813013,4.0,106.0,37.0,100.0
Coco-Mat Hotel Nafsika,38.0693,23.802204,4.5,714.0,22.0,64.0
Pines Hotel,38.09082,23.790966,3.0,34.0,65.0,40.0
The Y Hotel,38.07405,23.818611,4.5,432.0,43.0,88.0
Dekelia Hotel,38.091274,23.778072,4.0,82.0,51.0,0.0
Semiramis,38.074524,23.821342,4.5,417.0,51.0,81.0
Theoxenia Palace,38.07418,23.81981,4.0,499.0,71.0,85.0
Myrto Hotel,38.043358,23.989922,3.5,184.0,31.0,0.0
Golden Coast Hotel & Bungalows,38.10486,23.9775,4.0,1852.0,543.0,0.0
NLH Mati Seafront - Neighborhood Lifestyle Hotels,38.04656,23.99801,4.5,11.0,82.0,0.0
Cabo Verde Hotel,38.045994,23.998388,4.5,301.0,38.0,0.0
Attica Beach Hotel,38.046883,23.998262,3.0,85.0,94.0,0.0
Mati Hotel,38.04718,23.997927,4.0,254.0,70.0,0.0
Hotel Nireus,38.08483,23.984573,3.0,58.0,125.0,61.0
Marathon Beach Resort,38.08672,23.98323,4.0,486.0,26.0,63.0
Isidora Hotel,37.743126,23.53391,4.5,83.0,25.0,64.0
Argo Hotel,37.745525,23.539757,4.0,84.0,60.0,61.0
Ta Tria Adelfia,37.74596,23.540792,4.0,17.0,34.0,57.0
Apollo Resort,37.74655,23.543333,4.5,163.0,107.0,49.0
Hotel Liberty 2,37.74345,23.536901,4.5,46.0,20.0,65.0
Hotel Karyatides,37.74432,23.5368,4.0,29.0,30.0,67.0
Hotel Rachel,37.74377,23.537,4.5,327.0,18.0,65.0
Hotel Hermes,37.746475,23.536354,5.0,8.0,30.0,64.0
Voula Apartments,37.74509,23.53549,3.5,18.0,20.0,66.0
Hotel Liberty 1,37.7438,23.5372,4.0,68.0,16.0,65.0
Hotel Possidon,37.746883,23.540472,4.0,32.0,24.0,57.0
Hotel Erato,37.74432,23.5368,4.5,30.0,40.0,67.0
Senia Studios,37.745724,23.535812,4.0,21.0,20.0,66.0
Acqua Marina,37.742912,23.535725,4.5,33.0,6.0,64.0
Hotel Anatoli,37.745087,23.538565,4.0,108.0,30.0,65.0
Panorama Hotel,37.745625,23.540236,3.5,74.0,28.0,60.0
Hotel Magda,37.75226,23.51431,4.0,27.0,30.0,0.0
Hotel Blue Fountain,37.739227,23.533989,4.5,46.0,17.0,39.0
Seaside Village Rooms,37.74371,23.535229,3.0,5.0,16.0,67.0
Golden Star,37.7437,23.534332,4.0,1.0,0.0,67.0
Angela Hotel,37.74379,23.534306,5.0,149.0,20.0,67.0
Hotel Afea,37.747475,23.538385,4.5,52.0,34.0,58.0
Katerina Hotel,37.74611,23.537937,3.5,38.0,34.0,63.0
Galini Hotel,37.745632,23.536146,3.5,98.0,73.0,66.0
Life Gallery Athens Hotel,38.1141,23.848211,4.5,200.0,28.0,0.0
Hotel Hippocampus,37.69125,23.455395,4.5,64.0,20.0,0.0
LaLibay Resort & Spa,37.705467,23.464916,4.5,70.0,72.0,0.0
Kiani Akti,37.877907,24.015036,3.0,97.0,25.0,0.0
Hotel Miranda,37.74139,23.431667,2.5,103.0,23.0,85.0
Hotel Danae,37.75549,23.423588,4.0,209.0,54.0,57.0
Hotel Rastoni,37.749916,23.426685,5.0,232.0,14.0,88.0
Aphrodite Art Hotel,37.747997,23.4271,4.5,18.0,23.0,96.0
Crownview Suites,37.719097,23.459757,4.5,22.0,18.0,48.0
Aeginitiko Archontiko,37.747326,23.429296,4.0,123.0,10.0,100.0
Areti Hotel,37.74642,23.42683,3.5,17.0,30.0,98.0
Hotel Avra,37.746,23.43137,2.5,33.0,30.0,98.0
Hotel Klonos,37.75487,23.424414,4.0,75.0,20.0,61.0
Aegina Hotel,37.748863,23.427185,4.5,160.0,19.0,93.0
Hotel Klonos Anna,37.754707,23.424389,4.0,89.0,19.0,63.0
Bratsera Hotel,37.34919,23.467777,4.0,188.0,25.0,99.0
Cotommatae Hydra 1810,37.34777,23.46495,5.0,187.0,7.0,96.0
Hydra Suites,37.3484,23.466413,3.5,3.0,0.0,97.0
Alkionides Pension,37.34889,23.467222,4.5,98.0,11.0,99.0
Dolce by Wyndham Athens Attica Riviera,37.92939,24.007742,4.0,906.0,350.0,38.0
Hotel Giorgio,38.058094,23.72815,4.0,29.0,30.0,0.0
Acharnis Kavallari Hotel Suites,38.12894,23.73368,2.5,50.0,87.0,0.0
Cavallari Palace Hotel Suites,38.11827,23.73498,2.5,11.0,0.0,0.0
Olympion Hotel,38.057148,23.732136,4.0,69.0,33.0,0.0
Nikolakakis Rooms Lavrio,37.714886,24.057295,2.5,34.0,0.0,89.0
Hill Hotel,38.01271,23.83238,3.0,9.0,22.0,0.0
X Dream Hotel,38.01156,23.83321,3.0,4.0,22.0,0.0
Civitel Olympic Hotel,38.03361,23.795635,4.0,252.0,38.0,66.0
Civitel Attik & Civitel Esprit,38.04828,23.798063,4.0,392.0,61.0,72.0
Hotel Avra Rafina,38.020397,24.009277,3.5,788.0,96.0,75.0
Hotel Ikaros,37.88135,23.7301,4.0,29.0,24.0,42.0
Seasabelle Hotel,37.97153,24.00843,4.0,44.0,12.0,47.0
Holiday Apartment,37.99326,24.0119,5.0,1.0,0.0,0.0
Artemis GreenHill,37.941357,23.992327,4.0,16.0,3.0,0.0
Domotel Kastri Hotel,38.094814,23.823534,4.5,162.0,86.0,41.0
Kythera Irida hotel,36.31962,22.983591,4.5,42.0,0.0,0.0
Kythea Resort,36.33097,22.976208,4.5,115.0,30.0,0.0
Venardos Hotel,36.323154,22.982508,4.5,134.0,42.0,0.0
Romantica Hotel and Apartments,36.328163,22.97851,4.0,58.0,24.0,0.0
Pelagia Aphrodite Hotel,36.320168,22.98837,5.0,91.0,26.0,0.0
Sun Hotel,37.96442,23.2083,1.5,3.0,51.0,40.0
Kinetta Beach Hotel,37.96384,23.208883,3.5,1057.0,253.0,40.0
Hotel Cokkinis,37.97561,23.28418,4.5,170.0,24.0,0.0
Hotel Porto Diakofti,36.26231,23.07742,4.5,28.0,12.0,0.0
Kythira Golden Resort,36.261646,23.07333,5.0,185.0,13.0,0.0
Irides,37.773113,23.509838,5.0,260.0,15.0,0.0
Xanthippi Hotel Apartments,37.77191,23.490625,4.5,117.0,26.0,41.0
Ela Mesa Luxury Apartments,37.772087,23.484167,4.5,179.0,17.0,0.0
Zoe's Club Hotel,37.265686,23.156672,4.5,140.0,21.0,85.0
Nautilus Nontas Hotel,37.711357,23.348797,5.0,74.0,16.0,0.0
The Milos,37.712822,23.346552,4.5,59.0,20.0,0.0
Seaside Studios,37.71248,23.344893,5.0,7.0,129.0,0.0
Niki Rooms Apartments,36.14548,23.00037,4.0,20.0,17.0,56.0
Alkyonis Hotel,38.32038,23.81884,2.0,21.0,40.0,0.0
Hotel Methanion,37.58,23.390556,4.0,31.0,0.0,0.0
Aposperides Hotel,36.17947,22.98454,4.5,30.0,14.0,0.0
Vagia Traditional Hotel,37.76809,23.53631,5.0,351.0,21.0,42.0
Dolphin Hotel Resort & Conference,38.2961,23.90359,3.0,102.0,101.0,0.0
Calamos Beach Family Club Hotel,38.29508,23.918331,3.5,88.0,183.0,0.0
Oasis Scala Beach Hotel,37.70829,23.366022,4.5,447.0,25.0,58.0
Dionysos Hotel,37.70602,23.370094,4.0,70.0,23.0,50.0
Andreas Hotel,37.70717,23.364107,4.0,133.0,32.0,60.0
Vasilaras Hotel,37.707054,23.36671,4.0,123.0,24.0,55.0
Aktaion Beach Boutique Hotel & Spa,37.708237,23.366571,4.5,205.0,33.0,58.0
Agistri Club Hotel,37.70413,23.37159,5.0,397.0,14.0,41.0
Margarita Hotel,36.14917,22.98741,4.0,44.0,12.0,42.0
Xcite Hotel Salem,37.911697,23.745584,5.0,4.0,26.0,55.0
Platon Hotel,37.94447,23.680264,3.5,42.0,39.0,72.0
Athens Marriott Hotel,37.940723,23.696589,4.5,536.0,366.0,75.0
Nestorion Hotel,37.93922,23.696247,4.0,87.0,30.0,76.0
Poseidon Athens Hotel,37.918575,23.70114,4.0,1335.0,89.0,58.0
Coral Hotel Athens,37.924828,23.692045,4.0,734.0,88.0,75.0
Newel Psychiko,37.996357,23.77237,4.5,9.0,21.0,90.0
King Lodge,37.999744,23.770252,4.5,16.0,8.0,85.0
Anixi Boutique Hotel,38.125107,23.855927,3.5,139.0,22.0,0.0
Mylos Rooms,36.17747,22.994743,5.0,2.0,23.0,0.0
Hotel Pantheon,37.86324,23.93062,3.0,69.0,15.0,0.0
Carpe Diem Hotel,37.88733,23.92991,5.0,2.0,0.0,0.0
Mandraki Beach Resort,37.35368,23.485422,5.0,12.0,17.0,37.0
Comfort Stay Airport Boutique Hotel,37.965553,23.97672,4.0,36.0,9.0,0.0
Athens Cypria Hotel,37.97636,23.731808,4.0,1249.0,115.0,100.0
Hotel Albion,37.98524,23.72314,1.5,26.0,26.0,100.0
Hotel Akraion,38.05164,23.84583,4.0,13.0,6.0,42.0
Emporikon Athens Hotel,37.97715,23.727795,4.5,297.0,12.0,100.0